{
	"venues": [{
		"name": "Bitwise",
		"address": "700 Van Ness Ave",
		"location": {
			"lat": 36.731962,
			"lng": -119.785874
		},
		"type": "lens",
		"businessKey": "59DAYSOFAWESOME"
	}, {
		"name": "Fresno Arts Council",
		"address": "1245 Van Ness Ave",
		"location": {
			"lat": 36.737290,
			"lng": -119.792220
		},
		"type": "mall",
		"businessKey": "ROUNDTABLE"
	}, {
		"name": "Tioga",
		"address": "745 Fulton St",
		"location": {
			"lat": 36.730862,
			"lng": -119.788580
		},
		"type": "yeo",
		"businessKey": "99GOLDEN"
	}, {
		"name": "Fresno City Hall",
		"address": "2600 Fresno St",
		"location": {
			"lat": 36.739620,
			"lng": -119.784619
		},
		"type": "yeo",
		"businessKey": "CITYHALLROCKS"
	}, {
		"name": "African American Historical & Cultural Museum",
		"address": "1857 Fulton Street",
		"location": {
			"lat": 36.742689,
			"lng": -119.799831
		},
		"type": "mall",
		"businessKey": "ARTNIGHTMUSEUM"
	},
		{
		"name": "1821 Gallery",
		"address": "1821 Calaveras St",
		"location": {
			"lat": 36.739001,
			"lng": -119.798548
		},
		"type": "mall",
		"businessKey": "gallery1821"
	},
	{
		"name": "Arte Americas",
		"address": "1630 Van Ness",
		"location": {
			"lat": 36.741386,
			"lng": -119.795738
		},
		"type": "lens",
		"businessKey": "arteam1630"
	},
		{
		"name": "Arthouse",
		"address": "1612 H St.",
		"location": {
			"lat": 36.738966,
			"lng": -119.798839
		},
		"type": "yeo",
		"businessKey": "arthouse1612"
	}]
}
